[
  {
    "name": "Davis Library",
    "street": "7501-B Independence Pkwy",
    "city": "Plano",
    "state": "TX",
    "zip": "75025",
    "url": "https://www.plano.gov/3171/Davis-Library",
    "corrds": {"lat": 33.080444, "lng": -96.751839}
  },
  {
    "name": "Haggard Library",
    "street": "2501 Coit Rd",
    "city": "Plano",
    "state": "TX",
    "zip": "75075",
    "url": "https://www.plano.gov/3172/Haggard-Library",
    "corrds": {"lat": 33.032609, "lng": -96.770850}
  },
  {
    "name": "Harrington Library",
    "street": "1501 18th St",
    "city": "Plano",
    "state": "TX",
    "zip": "75074",
    "url": "https://www.plano.gov/3174/Harrington-Library",
    "corrds": {"lat": 33.024718, "lng": -96.692664}
  },
  {
    "name": "Parr Library",
    "street": "6200 Windhaven Pkwy",
    "city": "Plano",
    "state": "TX",
    "zip": "75093",
    "url": "https://www.plano.gov/3175/Parr-Library",
    "corrds": {"lat": 33.055892, "lng": -96.834357}
  },
  {
    "name": "Schimelpfieng Library",
    "street": "5024 Custer Rd",
    "city": "Plano",
    "state": "TX",
    "zip": "75023",
    "url": "https://www.plano.gov/3176/Schimelpfenig-Library",
    "corrds": {"lat": 33.055394, "lng": -96.732658}
  }
]
